[
  {"id":1,"name":"Green Acre Farm","type":"Vegetables","phone":"555-1111","hours":"8-1","image":"images/vendor1.webp", "description": "Fresh, locally grown vegetables harvested daily for the best flavor and quality." },
  {"id":2,"name":"Sunny Orchard","type":"Fruit","phone":"555-2222","hours":"9-2","image":"images/vendor2.webp", "description": "A family orchard offering crisp apples, juicy pears, and seasonal fruit favorites."},
  {"id":3,"name":"Happy Honey","type":"Honey","phone":"555-3333","hours":"8-12","image":"images/vendor3.webp", "description": "Pure, raw honey sourced from healthy local hives with rich natural sweetness."},
  {"id":4,"name":"Fresh Eggs Co","type":"Eggs","phone":"555-4444","hours":"8-12","image":"images/vendor4.webp", "description": "Farm-fresh eggs collected every morning from free-range hens."},
  {"id":5,"name":"Baker’s Choice","type":"Bread","phone":"555-5555","hours":"9-1","image":"images/vendor5.webp", "description": "Artisan breads and pastries baked fresh each market day."},
  {"id":6,"name":"Herbal Roots","type":"Herbs","phone":"555-6666","hours":"8-1","image":"images/vendor6.webp", "description": "Organic herbs and natural plant blends grown sustainably."},
  {"id":7,"name":"CheeseCraft","type":"Cheese","phone":"555-7777","hours":"10-2","image":"images/vendor7.webp", "description": "Small-batch cheeses made from local dairy with bold, unique flavors."},
  {"id":8,"name":"Local Deli","type":"Meats","phone":"555-8888","hours":"9-2","image":"images/vendor8.webp", "description": "Quality meats, sausages, and deli cuts prepared from local livestock."},
  {"id":9,"name":"Sweet Treats","type":"Desserts","phone":"555-9999","hours":"8-12","image":"images/vendor9.webp", "description": "Homemade desserts including cookies, cakes, and seasonal baked goods."},
  {"id":10,"name":"Bloom Fields","type":"Flowers","phone":"555-1010","hours":"8-1","image":"images/vendor10.webp", "description": "Beautiful fresh-cut flowers and bouquets grown locally."},
  {"id":11,"name":"Fresh Dairy","type":"Milk","phone":"555-1112","hours":"9-1","image":"images/vendor11.webp", "description": "Creamy, farm-fresh milk and dairy products from grass-fed cows."},
  {"id":12,"name":"Good Roast","type":"Coffee","phone":"555-1212","hours":"8-12","image":"images/vendor12.webp", "description": "Freshly roasted coffee beans and brewed drinks for caffeine lovers."},
  {"id":13,"name":"Craft Creations","type":"Handmade","phone":"555-1313","hours":"8-1","image":"images/vendor13.webp", "description": "Handmade crafts, gifts, and artisan décor created by local makers."},
  {"id":14,"name":"Grain Mill","type":"Wheat","phone":"555-1414","hours":"8-12","image":"images/vendor14.webp", "description": "Whole grains, flour, and wheat products milled fresh for home cooking."},
  {"id":15,"name":"Pure Juice","type":"Juices","phone":"555-1515","hours":"9-1","image":"images/vendor15.webp", "description": "Freshly squeezed fruit juices made from ripe local produce."}
]
